[{"nombre": "Bar Santi", "latitude": "41.297461", "longitude": "-4.107460", "tipo": "Bar"}, {"nombre": "Orquestra", "latitude": "41.297551", "longitude": "-4.106904", "tipo": "Actividad"}, {"nombre": "Sociedad salida", "latitude": "41.298546", "longitude": "-4.104623", "tipo": "Peña"}, {"nombre": "Los Leones", "latitude": "41.296147", "longitude": "-4.109207", "tipo": "Peña"}, {"nombre": "El Alboroto", "latitude": "41.297897", "longitude": "-4.107129", "tipo": "Peña"}, {"nombre": "Los Rokamora", "latitude": "41.298853", "longitude": "-4.105131", "tipo": "Peña"}, {"nombre": "El Cuerno", "latitude": "41.298476", "longitude": "-4.107130", "tipo": "Peña"}, {"nombre": "La Gotera", "latitude": "41.298554", "longitude": "-4.106919", "tipo": "Peña"}, {"nombre": "Los Kankanos", "latitude": "41.296373", "longitude": "-4.108744", "tipo": "Peña"}, {"nombre": "Los Arakiris", "latitude": "41.297684", "longitude": "-4.108605", "tipo": "Peña"}, {"nombre": "El Resakon - Los Salvajistas - El Puntazo", "latitude": "41.298841", "longitude": "-4.105157", "tipo": "Peña"}]